[{
  "station": "Boston, MA",
  "lon": -71.05,
  "lat": 42.36
},{
  "station": "Providence, RI",
  "lon": -71.40,
  "lat": 41.81
},{
  "station": "New London",
  "lon": -72.09,
  "lat": 41.36
},{
  "station": "Montauk, NY",
  "lon": -71.96,
  "lat": 41.05
},{
  "station": "Kings Point, NY",
  "lon": -73.77,
  "lat": 40.81
},{
  "station": "Battery, NY",
  "lon": -74.02,
  "lat": 40.70
},{
  "station": "Sandy Hook, NJ",
  "lon": -74.01,
  "lat": 40.47
},{
  "station": "Atlantic City, NJ",
  "lon": -74.42,
  "lat": 39.36
},{
  "station": "Philadelphia, PA",
  "lon": -75.14,
  "lat": 39.93
},{
  "station": "Lewes, DE",
  "lon": -75.12,
  "lat": 38.78
},{
  "station": "Baltimore, MD",
  "lon": -76.58,
  "lat": 39.27
},{
  "station": "Annapolis, MD",
  "lon": -76.48,
  "lat": 38.98
},{
  "station": "Washington D.C.",
  "lon": -77.02,
  "lat": 38.87
},{
  "station": "Sewell Point, VA",
  "lon": -76.33,
  "lat": 36.95
},{
  "station": "Wilmington, NC",
  "lon": -77.95,
  "lat": 34.23
},{
  "station": "Charleston, SC",
  "lon": -79.93,
  "lat": 32.78
},{
  "station": "Fort Pulaski, GA",
  "lon": -80.90,
  "lat": 32.04
},{
  "station": "Fernandina Beach, FL",
  "lon": -81.47,
  "lat": 30.67
},{
  "station": "Mayport, FL",
  "lon": -81.43,
  "lat": 30.40
},{
  "station": "Key West, FL",
  "lon": -81.81,
  "lat": 24.55
},{
  "station": "St Petersburg, FL",
  "lon": -82.63,
  "lat": 27.76
},{
  "station": "Galveston_Bay, TX",
  "lon": -94.79,
  "lat": 29.31
},{
  "station": "Port Isabel, TX",
  "lon": -97.22,
  "lat": 26.06
},{
  "station": "La Jolla, CA",
  "lon": -117.26,
  "lat": 32.87
},{
  "station": "San Francisco, CA",
  "lon": -122.47,
  "lat": 37.81
},{
  "station": "Seattle, WA",
  "lon": -122.34,
  "lat": 47.60
},{
  "station": "Honolulu, HI",
  "lon": -157.87,
  "lat": 21.31
}]
